[{"_id":3489940,"name":"Jamaica","country":"JM","coord":{"lon":-77.5,"lat":18.25}},
{"_id":3488716,"name":"Parish of Saint Andrew","country":"JM","coord":{"lon":-76.75,"lat":18.066669}},
{"_id":3489854,"name":"Kingston","country":"JM","coord":{"lon":-76.793579,"lat":17.997021}},
{"_id":3488700,"name":"Parish of Saint James","country":"JM","coord":{"lon":-77.883331,"lat":18.383329}},
{"_id":3489460,"name":"Montego Bay","country":"JM","coord":{"lon":-77.918831,"lat":18.471161}},
{"_id":3488081,"name":"Parish of Westmoreland","country":"JM","coord":{"lon":-78.150002,"lat":18.23333}},
{"_id":3488063,"name":"Whitehall","country":"JM","coord":{"lon":-78.345421,"lat":18.274401}},
{"_id":3488711,"name":"Parish of Saint Catherine","country":"JM","coord":{"lon":-77.01667,"lat":18.066669}},
{"_id":3488867,"name":"Rest Pen","country":"JM","coord":{"lon":-77.116669,"lat":17.933331}},
{"_id":3488981,"name":"Portmore","country":"JM","coord":{"lon":-76.867218,"lat":17.97024}},
{"_id":3491443,"name":"Beacon Hill","country":"JM","coord":{"lon":-76.949997,"lat":17.98333}},
{"_id":3488222,"name":"Parish of Trelawny","country":"JM","coord":{"lon":-77.633331,"lat":18.383329}},
{"_id":3491602,"name":"Albert Town","country":"JM","coord":{"lon":-77.542389,"lat":18.29434}},
{"_id":3488715,"name":"Parish of Saint Ann","country":"JM","coord":{"lon":-77.26667,"lat":18.35}},
{"_id":3491487,"name":"Bamboo","country":"JM","coord":{"lon":-77.26429,"lat":18.39216}},
{"_id":3490952,"name":"Parish of Clarendon","country":"JM","coord":{"lon":-77.300003,"lat":17.98333}},
{"_id":3491187,"name":"Bryans Pen","country":"JM","coord":{"lon":-77.23333,"lat":17.966669}},
{"_id":3490145,"name":"Parish of Hanover","country":"JM","coord":{"lon":-78.133331,"lat":18.41667}},
{"_id":3489657,"name":"Lucea","country":"JM","coord":{"lon":-78.173561,"lat":18.450951}},
{"_id":3489054,"name":"Phoenix Park","country":"JM","coord":{"lon":-78.133331,"lat":18.216669}},
{"_id":3488997,"name":"Parish of Portland","country":"JM","coord":{"lon":-76.533333,"lat":18.133329}},
{"_id":3489005,"name":"Port Antonio","country":"JM","coord":{"lon":-76.461212,"lat":18.179979}},
{"_id":3488693,"name":"Parish of Saint Mary","country":"JM","coord":{"lon":-76.900002,"lat":18.316669}},
{"_id":3489572,"name":"Mannings Town","country":"JM","coord":{"lon":-76.894859,"lat":18.367929}},
{"_id":3491169,"name":"Bull Bay","country":"JM","coord":{"lon":-76.666023,"lat":17.94372}},
{"_id":3488637,"name":"Sandy Bay","country":"JM","coord":{"lon":-77.183327,"lat":17.816669}},
{"_id":3491519,"name":"August Town","country":"JM","coord":{"lon":-76.741562,"lat":17.99522}},
{"_id":3490205,"name":"Gregory Park","country":"JM","coord":{"lon":-76.88134,"lat":17.995581}},
{"_id":3488708,"name":"Parish of Saint Elizabeth","country":"JM","coord":{"lon":-77.783333,"lat":18.049999}},
{"_id":3490020,"name":"Hopewell","country":"JM","coord":{"lon":-77.778069,"lat":17.94945}},
{"_id":3491379,"name":"Bethlehem","country":"JM","coord":{"lon":-77.699997,"lat":17.966669}},
{"_id":3489741,"name":"Little London","country":"JM","coord":{"lon":-78.216408,"lat":18.248301}},
{"_id":3491603,"name":"Albert Arms","country":"JM","coord":{"lon":-77.699997,"lat":18.049999}},
{"_id":3489758,"name":"Lionel Town","country":"JM","coord":{"lon":-77.240608,"lat":17.81007}},
{"_id":3490136,"name":"Harbour View","country":"JM","coord":{"lon":-76.717102,"lat":17.95336}},
{"_id":3490945,"name":"Clarks Town","country":"JM","coord":{"lon":-77.216667,"lat":18.4}},
{"_id":3491293,"name":"Bog Walk","country":"JM","coord":{"lon":-77.005409,"lat":18.102051}},
{"_id":3489113,"name":"Passage Fort","country":"JM","coord":{"lon":-76.868668,"lat":17.976}},
{"_id":3489480,"name":"Minho","country":"JM","coord":{"lon":-77.333328,"lat":18.133329}},
{"_id":3489016,"name":"Plum Corner","country":"JM","coord":{"lon":-77.48333,"lat":18.41667}},
{"_id":3489782,"name":"Liberty Valley","country":"JM","coord":{"lon":-77.366669,"lat":18.4}},
{"_id":3488379,"name":"Stony Hill","country":"JM","coord":{"lon":-76.480453,"lat":18.18088}},
{"_id":3488164,"name":"Up Park Camp","country":"JM","coord":{"lon":-76.779602,"lat":17.99415}},
{"_id":3488618,"name":"Santa Maria","country":"JM","coord":{"lon":-76.877899,"lat":18.075251}},
{"_id":3488688,"name":"Parish of Saint Thomas","country":"JM","coord":{"lon":-76.433327,"lat":17.9}},
{"_id":3489218,"name":"Old Lee Gate","country":"JM","coord":{"lon":-76.466667,"lat":17.950001}},
{"_id":3489387,"name":"Mount Nebo","country":"JM","coord":{"lon":-77.349998,"lat":18.08333}},
{"_id":3491013,"name":"Central Village","country":"JM","coord":{"lon":-76.920959,"lat":17.99757}},
{"_id":3490950,"name":"Clarendon Park","country":"JM","coord":{"lon":-77.371597,"lat":17.99354}},
{"_id":3489534,"name":"Matildas Corner","country":"JM","coord":{"lon":-76.76667,"lat":18.033331}},
{"_id":3489781,"name":"Liguanea","country":"JM","coord":{"lon":-76.764351,"lat":18.017611}},
{"_id":3489135,"name":"Papine","country":"JM","coord":{"lon":-76.737534,"lat":18.011999}},
{"_id":3489467,"name":"Mona Heights","country":"JM","coord":{"lon":-76.751862,"lat":18.01375}},
{"_id":6690260,"name":"Glengoffe","country":"JM","coord":{"lon":-76.890053,"lat":18.146009}},
{"_id":3490639,"name":"Dumblane","country":"JM","coord":{"lon":-77.73333,"lat":17.883329}},
{"_id":3490890,"name":"Comfort Village","country":"JM","coord":{"lon":-77.326317,"lat":17.947969}},
{"_id":3488894,"name":"Rectory","country":"JM","coord":{"lon":-77.883331,"lat":18.066669}},
{"_id":3488302,"name":"Thatch Pen","country":"JM","coord":{"lon":-77.316673,"lat":18.01667}}]